name,type,specialty,phone,whatsapp,email,governorate,city,address,hours,services,notes,image,lat,lng,schedule
صيدلية الشفاء,pharmacy,,0950000000,963950000000,,دمشق,دمشق,شارع الثورة - جانب مشفى الهلال,24 ساعة,"قياس ضغط؛ سكر؛ إسعافات أولية",,,33.5138,36.2765,"2026-02-10"
عيادة الدكتور أمجد,clinic,قلبية,0941111111,,,حلب,حلب,السبيل - مقابل مشفى الجامعة,9:00 - 20:00,"استشارات قلبية؛ تخطيط قلب",,,36.2021,37.1343,""
مخبر الأمل الطبي,lab,تحاليل,0932222222,,,حمص,حمص,الزهراء - قرب الدوار,8:00 - 19:00,"تحاليل شاملة؛ سحب منزلي",,,34.7309,36.7094,""
مشفى الرحمة,hospital,طوارئ,0943333333,,,ريف دمشق,دوما,شارع الرئيسي - قرب البلدية,24 ساعة,"إسعاف؛ طوارئ؛ أشعة",,,33.5719,36.4025,""
مستوصف المدينة,dispensary,طب عام,0934444444,,,اللاذقية,اللاذقية,الكورنيش - جانب الساحة,8:00 - 17:00,"طب عام؛ لقاحات",,,35.5322,35.7912,""
